{
  "cities": [
    {"name": "Mumbai", "lat": 19.0760, "lon": 72.8777, "state": "Maharashtra", "country": "India"},
    {"name": "Delhi", "lat": 28.6139, "lon": 77.2090, "state": "Delhi", "country": "India"},
    {"name": "Bangalore", "lat": 12.9716, "lon": 77.5946, "state": "Karnataka", "country": "India"},
    {"name": "Hyderabad", "lat": 17.3850, "lon": 78.4867, "state": "Telangana", "country": "India"},
    {"name": "Chennai", "lat": 13.0827, "lon": 80.2707, "state": "Tamil Nadu", "country": "India"},
    {"name": "Kolkata", "lat": 22.5726, "lon": 88.3639, "state": "West Bengal", "country": "India"},
    {"name": "Pune", "lat": 18.5204, "lon": 73.8567, "state": "Maharashtra", "country": "India"},
    {"name": "Ahmedabad", "lat": 23.0225, "lon": 72.5714, "state": "Gujarat", "country": "India"},
    {"name": "Lucknow", "lat": 26.8467, "lon": 80.9462, "state": "Uttar Pradesh", "country": "India"},
    {"name": "Jaipur", "lat": 26.9124, "lon": 75.7873, "state": "Rajasthan", "country": "India"},
    {"name": "Surat", "lat": 21.1458, "lon": 72.8332, "state": "Gujarat", "country": "India"},
    {"name": "Chandigarh", "lat": 30.7333, "lon": 76.7794, "state": "Chandigarh", "country": "India"},
    {"name": "Kochi", "lat": 9.9312, "lon": 76.2673, "state": "Kerala", "country": "India"},
    {"name": "Indore", "lat": 22.7196, "lon": 75.8577, "state": "Madhya Pradesh", "country": "India"},
    {"name": "Visakhapatnam", "lat": 17.6869, "lon": 83.2185, "state": "Andhra Pradesh", "country": "India"},
    {"name": "Vadodara", "lat": 22.3072, "lon": 73.1812, "state": "Gujarat", "country": "India"},
    {"name": "Ghaziabad", "lat": 28.6692, "lon": 77.4538, "state": "Uttar Pradesh", "country": "India"},
    {"name": "Nagpur", "lat": 21.1458, "lon": 79.0882, "state": "Maharashtra", "country": "India"},
    {"name": "Bhopal", "lat": 23.1815, "lon": 77.4104, "state": "Madhya Pradesh", "country": "India"},
    {"name": "Coimbatore", "lat": 11.0026, "lon": 76.6948, "state": "Tamil Nadu", "country": "India"},
    {"name": "Ludhiana", "lat": 30.9010, "lon": 75.8573, "state": "Punjab", "country": "India"},
    {"name": "Kanpur", "lat": 26.4499, "lon": 80.3313, "state": "Uttar Pradesh", "country": "India"},
    {"name": "Agra", "lat": 27.1767, "lon": 78.0081, "state": "Uttar Pradesh", "country": "India"},
    {"name": "Nashik", "lat": 19.9975, "lon": 73.7898, "state": "Maharashtra", "country": "India"},
    {"name": "Srinagar", "lat": 34.0837, "lon": 74.7973, "state": "Jammu and Kashmir", "country": "India"},
    {"name": "Aurangabad", "lat": 19.8762, "lon": 75.3433, "state": "Maharashtra", "country": "India"},
    {"name": "Dhanbad", "lat": 23.7957, "lon": 86.4304, "state": "Jharkhand", "country": "India"},
    {"name": "Amritsar", "lat": 31.6340, "lon": 74.8723, "state": "Punjab", "country": "India"},
    {"name": "Allahabad", "lat": 25.4358, "lon": 81.8463, "state": "Uttar Pradesh", "country": "India"},
    {"name": "Ranchi", "lat": 23.3441, "lon": 85.3096, "state": "Jharkhand", "country": "India"},
    {"name": "Howrah", "lat": 22.5958, "lon": 88.2636, "state": "West Bengal", "country": "India"},
    {"name": "Guwahati", "lat": 26.1445, "lon": 91.7362, "state": "Assam", "country": "India"},
    {"name": "Bareilly", "lat": 28.3670, "lon": 79.4383, "state": "Uttar Pradesh", "country": "India"},
    {"name": "Meerut", "lat": 28.9845, "lon": 77.7064, "state": "Uttar Pradesh", "country": "India"},
    {"name": "Patna", "lat": 25.5941, "lon": 85.1376, "state": "Bihar", "country": "India"},
    {"name": "Thiruvananthapuram", "lat": 8.5241, "lon": 76.9366, "state": "Kerala", "country": "India"},
    {"name": "Bhubaneswar", "lat": 20.2961, "lon": 85.8245, "state": "Odisha", "country": "India"},
    {"name": "Thrissur", "lat": 10.5276, "lon": 76.2144, "state": "Kerala", "country": "India"},
    {"name": "Gurgaon", "lat": 28.4595, "lon": 77.0266, "state": "Haryana", "country": "India"},
    {"name": "Noida", "lat": 28.5355, "lon": 77.3910, "state": "Uttar Pradesh", "country": "India"},
    {"name": "Vadodara", "lat": 22.3072, "lon": 73.1812, "state": "Gujarat", "country": "India"},
    {"name": "Guwahati", "lat": 26.1445, "lon": 91.7362, "state": "Assam", "country": "India"},
    {"name": "Vellore", "lat": 12.9689, "lon": 79.1288, "state": "Tamil Nadu", "country": "India"},
    {"name": "Belgaum", "lat": 15.8691, "lon": 74.5029, "state": "Karnataka", "country": "India"},
    {"name": "Tiruppur", "lat": 11.1085, "lon": 77.3410, "state": "Tamil Nadu", "country": "India"},
    {"name": "Guntur", "lat": 16.3067, "lon": 80.4365, "state": "Andhra Pradesh", "country": "India"},
    {"name": "Vijayawada", "lat": 16.5062, "lon": 80.6480, "state": "Andhra Pradesh", "country": "India"},
    {"name": "Kurnool", "lat": 15.8281, "lon": 78.6355, "state": "Andhra Pradesh", "country": "India"},
    {"name": "Mangalore", "lat": 12.8628, "lon": 74.8445, "state": "Karnataka", "country": "India"},
    {"name": "Mysore", "lat": 12.2958, "lon": 76.6394, "state": "Karnataka", "country": "India"},
    {"name": "Erode", "lat": 11.3410, "lon": 77.7172, "state": "Tamil Nadu", "country": "India"},
    {"name": "Salem", "lat": 11.6643, "lon": 78.1460, "state": "Tamil Nadu", "country": "India"},
    {"name": "Madurai", "lat": 9.9252, "lon": 78.1198, "state": "Tamil Nadu", "country": "India"},
    {"name": "Ranipet", "lat": 12.9211, "lon": 79.3197, "state": "Tamil Nadu", "country": "India"},
    {"name": "Tirunelveli", "lat": 8.7139, "lon": 77.2567, "state": "Tamil Nadu", "country": "India"},
    {"name": "Kanyakumari", "lat": 8.0883, "lon": 77.5385, "state": "Tamil Nadu", "country": "India"},
    {"name": "Nagercoil", "lat": 8.1771, "lon": 77.4255, "state": "Tamil Nadu", "country": "India"},
    {"name": "Jodhpur", "lat": 26.2389, "lon": 73.0243, "state": "Rajasthan", "country": "India"},
    {"name": "Udaipur", "lat": 24.5854, "lon": 73.7125, "state": "Rajasthan", "country": "India"},
    {"name": "Ajmer", "lat": 26.4499, "lon": 74.6399, "state": "Rajasthan", "country": "India"},
    {"name": "Bikaner", "lat": 28.0229, "lon": 71.8237, "state": "Rajasthan", "country": "India"},
    {"name": "Alwar", "lat": 27.5597, "lon": 76.6355, "state": "Rajasthan", "country": "India"},
    {"name": "Bhilwara", "lat": 25.3433, "lon": 74.6177, "state": "Rajasthan", "country": "India"},
    {"name": "Kota", "lat": 25.2183, "lon": 75.8245, "state": "Rajasthan", "country": "India"},
    {"name": "Pali", "lat": 25.7762, "lon": 73.3303, "state": "Rajasthan", "country": "India"},
    {"name": "Sikar", "lat": 27.6127, "lon": 75.1396, "state": "Rajasthan", "country": "India"},
    {"name": "Churu", "lat": 27.8389, "lon": 74.6199, "state": "Rajasthan", "country": "India"},
    {"name": "Ganganagar", "lat": 29.1922, "lon": 73.8844, "state": "Rajasthan", "country": "India"},
    {"name": "Rohtak", "lat": 28.8955, "lon": 77.0413, "state": "Haryana", "country": "India"},
    {"name": "Hisar", "lat": 29.1492, "lon": 75.7385, "state": "Haryana", "country": "India"},
    {"name": "Ambala", "lat": 30.3807, "lon": 76.7691, "state": "Haryana", "country": "India"},
    {"name": "Karnal", "lat": 29.6400, "lon": 77.1019, "state": "Haryana", "country": "India"},
    {"name": "Yamunanagar", "lat": 30.1183, "lon": 77.2793, "state": "Haryana", "country": "India"},
    {"name": "Panipat", "lat": 29.3989, "lon": 77.2857, "state": "Haryana", "country": "India"},
    {"name": "Sonipat", "lat": 28.9949, "lon": 77.6139, "state": "Haryana", "country": "India"},
    {"name": "Jalandhar", "lat": 31.7260, "lon": 75.5762, "state": "Punjab", "country": "India"},
    {"name": "Patiala", "lat": 30.3398, "lon": 76.3869, "state": "Punjab", "country": "India"},
    {"name": "Bathinda", "lat": 29.9751, "lon": 74.9396, "state": "Punjab", "country": "India"},
    {"name": "Sangrur", "lat": 30.2557, "lon": 75.5359, "state": "Punjab", "country": "India"},
    {"name": "Abohar", "lat": 29.8126, "lon": 74.1856, "state": "Punjab", "country": "India"},
    {"name": "Hoshiarpur", "lat": 31.5273, "lon": 75.9241, "state": "Punjab", "country": "India"},
    {"name": "Phagwara", "lat": 31.6914, "lon": 75.4047, "state": "Punjab", "country": "India"},
    {"name": "Kapurthala", "lat": 31.3963, "lon": 75.3951, "state": "Punjab", "country": "India"},
    {"name": "Mansa", "lat": 29.5829, "lon": 75.3949, "state": "Punjab", "country": "India"},
    {"name": "Faridkot", "lat": 30.7186, "lon": 74.7887, "state": "Punjab", "country": "India"},
    {"name": "Dehradun", "lat": 30.3165, "lon": 78.0322, "state": "Uttarakhand", "country": "India"},
    {"name": "Haridwar", "lat": 29.9457, "lon": 78.1642, "state": "Uttarakhand", "country": "India"},
    {"name": "Nainital", "lat": 29.3919, "lon": 79.4504, "state": "Uttarakhand", "country": "India"},
    {"name": "Rudrapur", "lat": 29.3689, "lon": 79.4263, "state": "Uttarakhand", "country": "India"},
    {"name": "Roorkee", "lat": 29.8564, "lon": 77.8870, "state": "Uttarakhand", "country": "India"},
    {"name": "Almora", "lat": 29.5935, "lon": 79.6370, "state": "Uttarakhand", "country": "India"},
    {"name": "Pithoragarh", "lat": 29.5833, "lon": 80.2742, "state": "Uttarakhand", "country": "India"},
    {"name": "Mussoorie", "lat": 30.4612, "lon": 78.4606, "state": "Uttarakhand", "country": "India"},
    {"name": "Rishikesh", "lat": 30.0889, "lon": 78.2679, "state": "Uttarakhand", "country": "India"},
    {"name": "Shimla", "lat": 31.7771, "lon": 77.1025, "state": "Himachal Pradesh", "country": "India"},
    {"name": "Mandi", "lat": 32.2406, "lon": 76.9271, "state": "Himachal Pradesh", "country": "India"},
    {"name": "Solan", "lat": 30.9154, "lon": 77.1733, "state": "Himachal Pradesh", "country": "India"},
    {"name": "Bilaspur", "lat": 31.2818, "lon": 76.7743, "state": "Himachal Pradesh", "country": "India"},
    {"name": "Hamirpur", "lat": 31.6881, "lon": 76.5186, "state": "Himachal Pradesh", "country": "India"},
    {"name": "Kangra", "lat": 32.2329, "lon": 76.2622, "state": "Himachal Pradesh", "country": "India"},
    {"name": "Palampur", "lat": 32.1747, "lon": 76.5350, "state": "Himachal Pradesh", "country": "India"},
    {"name": "Kalpa", "lat": 31.5205, "lon": 78.2389, "state": "Himachal Pradesh", "country": "India"},
    {"name": "Rampur", "lat": 31.3976, "lon": 77.5765, "state": "Himachal Pradesh", "country": "India"},
    {"name": "Sundernagar", "lat": 31.1980, "lon": 76.9639, "state": "Himachal Pradesh", "country": "India"},
    {"name": "Jammu", "lat": 32.7269, "lon": 74.8579, "state": "Jammu and Kashmir", "country": "India"},
    {"name": "Leh", "lat": 34.1526, "lon": 77.5770, "state": "Jammu and Kashmir", "country": "India"},
    {"name": "Katra", "lat": 32.7326, "lon": 74.9355, "state": "Jammu and Kashmir", "country": "India"},
    {"name": "Udhampur", "lat": 32.8286, "lon": 75.2396, "state": "Jammu and Kashmir", "country": "India"},
    {"name": "Samba", "lat": 32.6353, "lon": 74.8825, "state": "Jammu and Kashmir", "country": "India"},
    {"name": "Kathua", "lat": 32.3017, "lon": 74.9401, "state": "Jammu and Kashmir", "country": "India"},
    {"name": "Kishtwar", "lat": 33.3141, "lon": 75.5263, "state": "Jammu and Kashmir", "country": "India"},
    {"name": "Anantnag", "lat": 33.7305, "lon": 75.2872, "state": "Jammu and Kashmir", "country": "India"},
    {"name": "Samba", "lat": 32.6353, "lon": 74.8825, "state": "Jammu and Kashmir", "country": "India"},
    {"name": "Shopian", "lat": 33.7854, "lon": 74.8360, "state": "Jammu and Kashmir", "country": "India"},
    {"name": "Assam", "lat": 26.1445, "lon": 91.7362, "state": "Assam", "country": "India"},
    {"name": "Silchar", "lat": 24.8170, "lon": 88.6160, "state": "Assam", "country": "India"},
    {"name": "Dibrugarh", "lat": 27.4728, "lon": 94.9142, "state": "Assam", "country": "India"},
    {"name": "Jorhat", "lat": 26.7509, "lon": 94.2037, "state": "Assam", "country": "India"},
    {"name": "Nagaon", "lat": 26.1505, "lon": 92.6789, "state": "Assam", "country": "India"},
    {"name": "Tinsukia", "lat": 27.4844, "lon": 95.3659, "state": "Assam", "country": "India"},
    {"name": "Goalpara", "lat": 26.1678, "lon": 90.6206, "state": "Assam", "country": "India"},
    {"name": "Barpeta", "lat": 26.2977, "lon": 90.7859, "state": "Assam", "country": "India"},
    {"name": "Nalbari", "lat": 26.4525, "lon": 91.4298, "state": "Assam", "country": "India"},
    {"name": "Darrang", "lat": 26.5179, "lon": 91.7268, "state": "Assam", "country": "India"},
    {"name": "Dhemaji", "lat": 27.4754, "lon": 93.2542, "state": "Assam", "country": "India"},
    {"name": "Hailakandi", "lat": 24.6951, "lon": 88.7953, "state": "Assam", "country": "India"},
    {"name": "Cachar", "lat": 24.7671, "lon": 88.6038, "state": "Assam", "country": "India"},
    {"name": "Karimganj", "lat": 24.8605, "lon": 92.3595, "state": "Assam", "country": "India"},
    {"name": "Dima Hasao", "lat": 25.4667, "lon": 92.6667, "state": "Assam", "country": "India"},
    {"name": "West Bengal", "lat": 22.5726, "lon": 88.3639, "state": "West Bengal", "country": "India"},
    {"name": "Asansol", "lat": 23.6810, "lon": 86.9631, "state": "West Bengal", "country": "India"},
    {"name": "Durgapur", "lat": 23.8103, "lon": 87.3167, "state": "West Bengal", "country": "India"},
    {"name": "Siliguri", "lat": 26.7271, "lon": 88.3953, "state": "West Bengal", "country": "India"},
    {"name": "Jalpaiguri", "lat": 26.5200, "lon": 88.7693, "state": "West Bengal", "country": "India"},
    {"name": "Alipurduar", "lat": 26.4838, "lon": 89.0158, "state": "West Bengal", "country": "India"},
    {"name": "Midnapore", "lat": 22.4230, "lon": 87.3096, "state": "West Bengal", "country": "India"},
    {"name": "Hooghly", "lat": 22.9089, "lon": 88.4117, "state": "West Bengal", "country": "India"},
    {"name": "Bardhaman", "lat": 23.2230, "lon": 87.8645, "state": "West Bengal", "country": "India"},
    {"name": "Bolpur", "lat": 23.6615, "lon": 87.6704, "state": "West Bengal", "country": "India"},
    {"name": "Purulia", "lat": 23.8830, "lon": 86.3656, "state": "West Bengal", "country": "India"},
    {"name": "Birbhum", "lat": 24.0987, "lon": 87.3122, "state": "West Bengal", "country": "India"},
    {"name": "Malda", "lat": 25.3193, "lon": 88.1381, "state": "West Bengal", "country": "India"},
    {"name": "Murshidabad", "lat": 24.1733, "lon": 88.2686, "state": "West Bengal", "country": "India"},
    {"name": "Nadia", "lat": 23.4329, "lon": 88.4733, "state": "West Bengal", "country": "India"},
    {"name": "North 24 Parganas", "lat": 22.6415, "lon": 88.8293, "state": "West Bengal", "country": "India"},
    {"name": "South 24 Parganas", "lat": 22.0143, "lon": 88.8704, "state": "West Bengal", "country": "India"},
    {"name": "Odisha", "lat": 20.2961, "lon": 85.8245, "state": "Odisha", "country": "India"},
    {"name": "Cuttack", "lat": 20.4625, "lon": 85.8830, "state": "Odisha", "country": "India"},
    {"name": "Rourkela", "lat": 22.2265, "lon": 84.8754, "state": "Odisha", "country": "India"},
    {"name": "Berhampur", "lat": 19.3155, "lon": 84.7941, "state": "Odisha", "country": "India"},
    {"name": "Sambalpur", "lat": 21.4667, "lon": 83.9833, "state": "Odisha", "country": "India"},
    {"name": "Balasore", "lat": 21.4938, "lon": 86.9271, "state": "Odisha", "country": "India"},
    {"name": "Dhenkanal", "lat": 20.7333, "lon": 85.5938, "state": "Odisha", "country": "India"},
    {"name": "Kendujhar", "lat": 21.6408, "lon": 85.3872, "state": "Odisha", "country": "India"},
    {"name": "Mayurbhanj", "lat": 22.5019, "lon": 85.9644, "state": "Odisha", "country": "India"},
    {"name": "Bargarh", "lat": 21.7917, "lon": 83.6167, "state": "Odisha", "country": "India"},
    {"name": "Baleswar", "lat": 21.4938, "lon": 86.9271, "state": "Odisha", "country": "India"},
    {"name": "Nuapada", "lat": 19.9708, "lon": 82.8833, "state": "Odisha", "country": "India"},
    {"name": "Gajapati", "lat": 18.8622, "lon": 84.9744, "state": "Odisha", "country": "India"},
    {"name": "Puri", "lat": 19.8135, "lon": 85.8312, "state": "Odisha", "country": "India"},
    {"name": "Jagatsinghpur", "lat": 19.9167, "lon": 86.3500, "state": "Odisha", "country": "India"},
    {"name": "Jajpur", "lat": 20.8667, "lon": 85.8333, "state": "Odisha", "country": "India"},
    {"name": "Nayagarh", "lat": 19.8667, "lon": 85.1167, "state": "Odisha", "country": "India"},
    {"name": "Khordha", "lat": 20.0711, "lon": 85.8312, "state": "Odisha", "country": "India"},
    {"name": "Subarnapur", "lat": 20.5667, "lon": 84.0667, "state": "Odisha", "country": "India"},
    {"name": "Balangir", "lat": 20.6500, "lon": 83.4833, "state": "Odisha", "country": "India"},
    {"name": "Boudh", "lat": 20.0333, "lon": 84.5000, "state": "Odisha", "country": "India"},
    {"name": "Kandhamal", "lat": 19.8667, "lon": 84.6167, "state": "Odisha", "country": "India"},
    {"name": "Bhadrak", "lat": 21.0444, "lon": 86.5089, "state": "Odisha", "country": "India"},
    {"name": "Debagarh", "lat": 21.9333, "lon": 84.3000, "state": "Odisha", "country": "India"},
    {"name": "Bihar", "lat": 25.5941, "lon": 85.1376, "state": "Bihar", "country": "India"},
    {"name": "Gaya", "lat": 24.7955, "lon": 84.9994, "state": "Bihar", "country": "India"},
    {"name": "Bhagalpur", "lat": 25.2453, "lon": 86.5304, "state": "Bihar", "country": "India"},
    {"name": "Munger", "lat": 25.3819, "lon": 86.4735, "state": "Bihar", "country": "India"},
    {"name": "Nalanda", "lat": 24.8867, "lon": 85.3858, "state": "Bihar", "country": "India"},
    {"name": "Arrah", "lat": 25.5532, "lon": 84.6689, "state": "Bihar", "country": "India"},
    {"name": "Motihari", "lat": 26.6392, "lon": 84.9846, "state": "Bihar", "country": "India"},
    {"name": "Purnia", "lat": 25.7761, "lon": 87.4754, "state": "Bihar", "country": "India"},
    {"name": "Madhubani", "lat": 26.3889, "lon": 86.4783, "state": "Bihar", "country": "India"},
    {"name": "Darbhanga", "lat": 26.1438, "lon": 85.8945, "state": "Bihar", "country": "India"},
    {"name": "Muzzaffarpur", "lat": 26.1209, "lon": 85.3940, "state": "Bihar", "country": "India"},
    {"name": "Jharkhand", "lat": 23.3441, "lon": 85.3096, "state": "Jharkhand", "country": "India"},
    {"name": "Jamshedpur", "lat": 22.8046, "lon": 86.1831, "state": "Jharkhand", "country": "India"},
    {"name": "Giridih", "lat": 24.1756, "lon": 85.3020, "state": "Jharkhand", "country": "India"},
    {"name": "Hazaribagh", "lat": 23.9973, "lon": 85.4210, "state": "Jharkhand", "country": "India"},
    {"name": "Bokaro", "lat": 23.6673, "lon": 85.9707, "state": "Jharkhand", "country": "India"},
    {"name": "Palamu", "lat": 24.1094, "lon": 84.4627, "state": "Jharkhand", "country": "India"},
    {"name": "Lohardaga", "lat": 23.6639, "lon": 84.7134, "state": "Jharkhand", "country": "India"},
    {"name": "Garwa", "lat": 24.2089, "lon": 84.0755, "state": "Jharkhand", "country": "India"},
    {"name": "East Singhbhum", "lat": 22.7854, "lon": 86.3881, "state": "Jharkhand", "country": "India"},
    {"name": "West Singhbhum", "lat": 22.9639, "lon": 85.3298, "state": "Jharkhand", "country": "India"},
    {"name": "Saraikela Kharsawan", "lat": 23.2333, "lon": 85.2333, "state": "Jharkhand", "country": "India"},
    {"name": "Dumka", "lat": 24.2667, "lon": 87.2583, "state": "Jharkhand", "country": "India"},
    {"name": "Godda", "lat": 24.6889, "lon": 87.1583, "state": "Jharkhand", "country": "India"},
    {"name": "Deoghar", "lat": 24.4833, "lon": 86.6667, "state": "Jharkhand", "country": "India"},
    {"name": "Sahebganj", "lat": 24.9333, "lon": 87.5333, "state": "Jharkhand", "country": "India"},
    {"name": "Koderma", "lat": 24.4667, "lon": 85.6000, "state": "Jharkhand", "country": "India"},
    {"name": "Chatra", "lat": 24.2389, "lon": 84.8333, "state": "Jharkhand", "country": "India"},
    {"name": "Simdega", "lat": 23.5667, "lon": 84.6667, "state": "Jharkhand", "country": "India"},
    {"name": "Gumla", "lat": 23.0667, "lon": 84.4500, "state": "Jharkhand", "country": "India"},
    {"name": "Khunti", "lat": 22.9942, "lon": 84.8356, "state": "Jharkhand", "country": "India"},
    {"name": "Ramgarh", "lat": 23.6333, "lon": 85.5333, "state": "Jharkhand", "country": "India"},
    {"name": "Jamtara", "lat": 24.5333, "lon": 86.8000, "state": "Jharkhand", "country": "India"},
    {"name": "Kolhan", "lat": 22.6833, "lon": 86.4167, "state": "Jharkhand", "country": "India"}
  ],
  "version": "1.0",
  "generated": "2025-01-15",
  "notes": "200 major Indian cities with coordinates. Used as offline fallback when online /search API hasn't cached nearby results. Includes state/country for context; emergency numbers (108/100/101/112) available from emergency_seed.json."
}
